{"type":"FeatureCollection","features":[{"type":"Feature","properties":{"id":"marker-iefkj0t43","title":"HRDF Agri","description":"","marker-size":"medium","marker-color":"#1087bf","marker-symbol":""},"geometry":{"coordinates":[43.044433,39.724088],"type":"Point"},"id":"15eeb5701161889ca8320490fa052fdd"},{"type":"Feature","properties":{"id":"marker-iefki5xn1","title":"HRDF Bilecik","description":"","marker-size":"medium","marker-color":"#1087bf","marker-symbol":""},"geometry":{"coordinates":[29.970703,40.145289],"type":"Point"},"id":"4b64044570b40efc1454ae67cee022ac"},{"type":"Feature","properties":{"id":"marker-iefkk7px5","title":"HRDF Ankara","description":"","marker-size":"medium","marker-color":"#1087bf","marker-symbol":""},"geometry":{"coordinates":[32.585449,39.96028],"type":"Point"},"id":"68b74ce8f2bc15da27c12ca0a183ca26"},{"type":"Feature","properties":{"id":"marker-iefkgl0g0","title":"HRDF Kutahya","description":"","marker-size":"medium","marker-color":"#1087bf","marker-symbol":""},"geometry":{"coordinates":[29.981689,39.410733],"type":"Point"},"id":"9e881360af7cedf45db0986310f1be73"},{"type":"Feature","properties":{"id":"marker-iefkjk924","title":"HRDF Istanbul","description":"","marker-size":"medium","marker-color":"#1087bf","marker-symbol":""},"geometry":{"coordinates":[29.168701,41.046216],"type":"Point"},"id":"b77140d6853d930bad4707ff27264597"},{"type":"Feature","properties":{"id":"marker-iefksbqj6","title":"HRDF Van","description":"","marker-size":"medium","marker-color":"#1087bf","marker-symbol":""},"geometry":{"coordinates":[43.659667,38.453588],"type":"Point"},"id":"c205070b3f600c9b5fe9f400fc2d4a4b"},{"type":"Feature","properties":{"id":"marker-iefkikf42","title":"HRDF Eskisehir","description":"","marker-size":"medium","marker-color":"#1087bf","marker-symbol":""},"geometry":{"coordinates":[30.520019,39.766325],"type":"Point"},"id":"c972306ff65a1e67c9cd10e0956a0cb4"}],"id":"lombie.ndlplmmj"}