{"type":"FeatureCollection","features":[{"type":"Feature","properties":{"name":"ASAM Gaziantep","styleUrl":"#1087bfmedium","styleHash":"3f12e172","id":null,"title":"ASAM Gaziantep","description":"","marker-size":"small","marker-color":"63b6e5","marker-symbol":"town-hall"},"geometry":{"coordinates":[37.378234,37.001455],"type":"Point"},"id":"05a9937d05a15b8a0ce3098c266cf371"},{"type":"Feature","properties":{"id":"marker-igvx9huh8","title":"ASAM Malatya","description":"","marker-size":"small","marker-color":"#1087bf","marker-symbol":"town-hall"},"geometry":{"coordinates":[38.314819,38.35458],"type":"Point"},"id":"08c50607d6fb6631a402b85240019be7"},{"type":"Feature","properties":{"id":"marker-igvx4h7v1","title":"ASAM Van"},"geometry":{"coordinates":[43.379516,38.503042],"type":"Point"},"id":"11eb7b318ebb2a6523c6d5f2d881cf88"},{"type":"Feature","properties":{"name":"ASAM Konya","styleUrl":"#1087bfmedium","styleHash":"3f12e172","id":null,"title":"ASAM Konya","description":"","marker-size":"small","marker-color":"63b6e5","marker-symbol":"town-hall"},"geometry":{"coordinates":[32.500304,37.874853],"type":"Point"},"id":"1c2ce7a7ea62b620d3c5b5776f86a991"},{"type":"Feature","properties":{"name":"ASAM Amasya","styleUrl":"#1087bfmedium","styleHash":"3f12e172","id":null,"title":"ASAM Amasya","description":"","marker-size":"small","marker-color":"63b6e5","marker-symbol":"town-hall"},"geometry":{"coordinates":[35.837402,40.651471],"type":"Point"},"id":"21b3201562cb13e40bb576365fad3659"},{"type":"Feature","properties":{"name":"ASAM Kirsehir","styleUrl":"#1087bfmedium","styleHash":"3f12e172","id":null,"title":"ASAM Kirsehir","description":"","marker-size":"small","marker-color":"63b6e5","marker-symbol":"town-hall"},"geometry":{"coordinates":[34.161987,39.147102],"type":"Point"},"id":"259b6eaf87dbeabb23e045e09bc90eab"},{"type":"Feature","properties":{"id":"marker-igvx8ige6","title":"ASAM Hatay","description":"","marker-size":"small","marker-color":"#1087bf","marker-symbol":"town-hall"},"geometry":{"coordinates":[36.161499,36.22655],"type":"Point"},"id":"295fd86c5d607e8f41d60fa3e2d80586"},{"type":"Feature","properties":{"name":"ASAM Adana MSC","styleUrl":"#1087bfmedium","styleHash":"3f12e172","id":null,"title":"ASAM Adana MSC","description":"","marker-size":"small","marker-color":"63b6e5","marker-symbol":"town-hall"},"geometry":{"coordinates":[35.330314,36.991584],"type":"Point"},"id":"43ace24197dbd5a483a598c4b35cb7a4"},{"type":"Feature","properties":{"id":"marker-igvx7xco5","title":"ASAM Samsun","description":"","marker-size":"small","marker-color":"#1087bf","marker-symbol":"town-hall"},"geometry":{"coordinates":[36.331787,41.290189],"type":"Point"},"id":"52daaac7cdd1ff5ddfbc65153a09545d"},{"type":"Feature","properties":{"name":"ASAM Kirlareli","styleUrl":"#1087bfmedium","styleHash":"3f12e172","id":null,"title":"ASAM Kirlareli","description":"","marker-size":"small","marker-color":"63b6e5","marker-symbol":"town-hall"},"geometry":{"coordinates":[27.225004,41.73387],"type":"Point"},"id":"59cd3ad2f741b39101114b829f5efbf5"},{"type":"Feature","properties":{"name":"ASAM Afyonkarahisar","styleUrl":"#1087bfmedium","styleHash":"3f12e172","id":null,"title":"ASAM Afyonkarahisar","description":"","marker-size":"small","marker-color":"63b6e5","marker-symbol":"town-hall"},"geometry":{"coordinates":[30.536499,38.758366],"type":"Point"},"id":"5bc35e8e89b46203d6bd6a9bf0febbdf"},{"type":"Feature","properties":{"name":"ASAM Tokat","styleUrl":"#1087bfmedium","styleHash":"3f12e172","id":null,"title":"ASAM Tokat","description":"","marker-size":"small","marker-color":"63b6e5","marker-symbol":"town-hall"},"geometry":{"coordinates":[36.551513,40.329795],"type":"Point"},"id":"7246d9ddbcd67813cd32e3f3962fe6fc"},{"type":"Feature","properties":{"id":"marker-igvx62m83","title":"ASAM Corum","description":"","marker-size":"small","marker-color":"#1087bf","marker-symbol":"town-hall"},"geometry":{"coordinates":[34.93927,40.563894],"type":"Point"},"id":"75b0b69d5324e71184a766914fee362f"},{"type":"Feature","properties":{"name":"ASAM Mersin","styleUrl":"#1087bfmedium","styleHash":"3f12e172","id":null,"title":"ASAM Mersin","description":"","marker-size":"small","marker-color":"63b6e5","marker-symbol":"town-hall"},"geometry":{"coordinates":[34.628992,36.811552],"type":"Point"},"id":"7b75a7e2375ca7de9ac704721078721e"},{"type":"Feature","properties":{"id":"marker-igvx5muk2","title":"ASAM Isparta","description":"","marker-size":"small","marker-color":"#1087bf","marker-symbol":"town-hall"},"geometry":{"coordinates":[30.566711,37.766372],"type":"Point"},"id":"88f08058e0f1aede5a445526e6c68bd0"},{"type":"Feature","properties":{"name":"ASAM Izmir SYCYDM","styleUrl":"#1087bfmedium","styleHash":"3f12e172","id":null,"title":"ASAM Izmir SYCYDM","description":"","marker-size":"small","marker-color":"63b6e5","marker-symbol":"town-hall"},"geometry":{"coordinates":[26.960449,38.391186],"type":"Point"},"id":"8dae3bdbcd46f176ba32ef22d12401c7"},{"type":"Feature","properties":{"name":"ASAM Ankara","styleUrl":"#1087bfmedium","styleHash":"3f12e172","id":null,"title":"ASAM Ankara","description":"","marker-size":"small","marker-color":"63b6e5","marker-symbol":"town-hall"},"geometry":{"coordinates":[32.854957,39.929221],"type":"Point"},"id":"9e043826ab1457bc8272a16dd6ca636e"},{"type":"Feature","properties":{"id":"marker-igvx96ir7","title":"ASAM Mardin","description":"","marker-size":"small","marker-color":"#1087bf","marker-symbol":"town-hall"},"geometry":{"coordinates":[40.726318,37.326488],"type":"Point"},"id":"a8215a1bb140fd0ba2dd629de45cd9fe"},{"type":"Feature","properties":{"name":"ASAM Balikesir","styleUrl":"#1087bfmedium","styleHash":"3f12e172","id":null,"title":"ASAM Balikesir","description":"","marker-size":"small","marker-color":"63b6e5","marker-symbol":"town-hall"},"geometry":{"coordinates":[27.887864,39.64736],"type":"Point"},"id":"b079e6b2dd644a9526e6b99038530da7"},{"type":"Feature","properties":{"id":"marker-igvx7n5p4","title":"ASAM Erzurum","description":"","marker-size":"small","marker-color":"#1087bf","marker-symbol":"town-hall"},"geometry":{"coordinates":[41.275634,39.913949],"type":"Point"},"id":"b75b26612f6f6ee03bdc81b662969b56"},{"type":"Feature","properties":{"id":"marker-igvx9vfi9","title":"ASAM Kahramanmaras","description":"","marker-size":"small","marker-color":"#1087bf","marker-symbol":"town-hall"},"geometry":{"coordinates":[36.908569,37.596824],"type":"Point"},"id":"badbb119244d5284a485fca851a718e2"},{"type":"Feature","properties":{"name":"ASAM Sakarya","styleUrl":"#1087bfmedium","styleHash":"3f12e172","id":null,"title":"ASAM Sakarya","description":"","marker-size":"small","marker-color":"63b6e5","marker-symbol":"town-hall"},"geometry":{"coordinates":[30.396423,40.709792],"type":"Point"},"id":"bb216dc16a303125d9ea6a10fb11bf1a"},{"type":"Feature","properties":{"name":"ASAM Kayseri","styleUrl":"#1087bfmedium","styleHash":"3f12e172","id":null,"title":"ASAM Kayseri","description":"","marker-size":"small","marker-color":"63b6e5","marker-symbol":"town-hall"},"geometry":{"coordinates":[35.485839,38.728375],"type":"Point"},"id":"bb6b0784173682371707ebedb1b2ad31"},{"type":"Feature","properties":{"name":"ASAM Mugla","id":null,"title":"ASAM Mugla","description":"","marker-size":"small","marker-color":"63b6e5","marker-symbol":"town-hall"},"geometry":{"coordinates":[28.362779,37.210711],"type":"Point"},"id":"c13685464c01ad5a4677686609b9a3a2"},{"type":"Feature","properties":{"name":"ASAM Nevsehir","styleUrl":"#1087bfmedium","styleHash":"3f12e172","id":null,"title":"ASAM Nevsehir","description":"","marker-size":"small","marker-color":"63b6e5","marker-symbol":"town-hall"},"geometry":{"coordinates":[34.716796,38.621162],"type":"Point"},"id":"e1e18aa995e1f7867f179b0be0c030e2"},{"type":"Feature","properties":{"id":"marker-igvx2pht0","title":"ASAM Karaman","description":"","marker-size":"small","marker-color":"#1087bf","marker-symbol":"town-hall"},"geometry":{"coordinates":[33.214416,37.186578],"type":"Point"},"id":"e23bb23a272918118e97d2276291e9c9"},{"type":"Feature","properties":{"name":"ASAM Sanliurfa Yardim Dagitim Projesi","styleUrl":"#1087bfmedium","styleHash":"3f12e172","id":null,"title":"ASAM Sanliurfa Yardim Dagitim Projesi","description":"","marker-size":"small","marker-color":"63b6e5","marker-symbol":"town-hall"},"geometry":{"coordinates":[38.792724,37.160316],"type":"Point"},"id":"e36941f26718811368e3998a20ab7f80"},{"type":"Feature","properties":{"name":"ASAM Nigde","styleUrl":"#1087bfmedium","styleHash":"3f12e172","id":null,"title":"ASAM Nigde","description":"","marker-size":"small","marker-color":"63b6e5","marker-symbol":"town-hall"},"geometry":{"coordinates":[34.678344,37.970184],"type":"Point"},"id":"e9bd3013946578a4a3f478908600b8e7"},{"type":"Feature","properties":{"name":"ASAM Gaziantep MSC 2","styleUrl":"#1087bfmedium","styleHash":"3f12e172","id":null,"title":"ASAM Gaziantep MSC 2","description":"","marker-size":"small","marker-color":"63b6e5","marker-symbol":"town-hall"},"geometry":{"coordinates":[37.497711,37.078188],"type":"Point"},"id":"ed84ef458029b211909e2cfe66fd7c8f"},{"type":"Feature","properties":{"name":"ASAM Edirne","id":null,"title":"ASAM Edirne","description":"","marker-size":"small","marker-color":"63b6e5","marker-symbol":"town-hall"},"geometry":{"coordinates":[26.552414,41.675958],"type":"Point"},"id":"f5d0a0558213932d890ad507c34b082f"},{"type":"Feature","properties":{"name":"ASAM Çanakkale","id":null,"title":"ASAM Çanakkale","description":"","marker-size":"small","marker-color":"63b6e5","marker-symbol":"town-hall"},"geometry":{"coordinates":[26.406664,40.146953],"type":"Point"},"id":"f62346dc6e8f9e68012d6ec93c05eea2"},{"type":"Feature","properties":{"name":"ASAM Istanbul MYCDM","styleUrl":"#1087bfmedium","styleHash":"3f12e172","id":null,"title":"ASAM Istanbul MYCDM","description":"","marker-size":"small","marker-color":"63b6e5","marker-symbol":"town-hall"},"geometry":{"coordinates":[28.773193,41.00892],"type":"Point"},"id":"f900ab67473ac6530b87d0aaf3d5d1b9"},{"type":"Feature","properties":{"name":"ASAM Kirikkale","styleUrl":"#1087bfmedium","styleHash":"3f12e172","id":null,"title":"ASAM Kirikkale","description":"","marker-size":"small","marker-color":"63b6e5","marker-symbol":"town-hall"},"geometry":{"coordinates":[33.508643,39.84044],"type":"Point"},"id":"fbafa5418c4cdcf5e7ffb4916cee4d43"},{"type":"Feature","properties":{"name":"ASAM Istanbul SYCYDM","styleUrl":"#1087bfmedium","styleHash":"3f12e172","id":null,"title":"ASAM Istanbul SYCYDM","description":"","marker-size":"small","marker-color":"63b6e5","marker-symbol":"town-hall"},"geometry":{"coordinates":[28.979187,41.033269],"type":"Point"},"id":"fd3c9654de4144f4d61266a36a2ceb11"},{"type":"Feature","properties":{"name":"ASAM Gaziantep MSC","styleUrl":"#1087bfmedium","styleHash":"3f12e172","id":null,"title":"ASAM Gaziantep MSC","description":"","marker-size":"small","marker-color":"63b6e5","marker-symbol":"town-hall"},"geometry":{"coordinates":[37.246398,37.062848],"type":"Point"},"id":"ff96aa8ba2d54f874f172860d1cd5617"}],"id":"lombie.ndloej82"}